{"type":"FeatureCollection","features":[{"type":"Feature","id":1,"geometry":{"type":"Point","coordinates":[114.00631401079725,22.469152994727324]},"properties":{"OBJECTID":1,"Link":"https://www.buildingurbannature.hku.hk/hong-kong-wetland-park/","Name":"Hong Kong Wetland Park","Version":"Ecological Design Literacy"}},{"type":"Feature","id":2,"geometry":{"type":"Point","coordinates":[114.03390564437474,22.509755103464229]},"properties":{"OBJECTID":2,"Link":"https://www.buildingurbannature.hku.hk/the-19th-ibc-memorial-park/","Name":"The 19th IBC Memorial Park","Version":"Ecological Design Literacy"}},{"type":"Feature","id":3,"geometry":{"type":"Point","coordinates":[113.95495245983022,22.532149803459991]},"properties":{"OBJECTID":3,"Link":"https://www.buildingurbannature.hku.hk/dasha-river-ecological-corridor/","Name":"Dasha River Ecological Corridor","Version":"Ecological Design Literacy"}},{"type":"Feature","id":4,"geometry":{"type":"Point","coordinates":[114.05235476847119,22.452996995904815]},"properties":{"OBJECTID":4,"Link":"https://www.buildingurbannature.hku.hk/sha-po-marsh/","Name":"Sha Po Marsh","Version":"Ecological Design Literacy"}},{"type":"Feature","id":5,"geometry":{"type":"Point","coordinates":[114.11349015771437,22.513331532243207]},"properties":{"OBJECTID":5,"Link":"https://www.buildingurbannature.hku.hk/ho-sheung-heung/","Name":"Ho Sheung Heung","Version":"Ecological Design Literacy"}},{"type":"Feature","id":6,"geometry":{"type":"Point","coordinates":[114.11583302506079,22.493441202902677]},"properties":{"OBJECTID":6,"Link":"https://www.buildingurbannature.hku.hk/fanling-golf-course/","Name":"Fanling Golf Course","Version":"Ecological Design Literacy"}},{"type":"Feature","id":7,"geometry":{"type":"Point","coordinates":[113.96600224447474,22.302478793290248]},"properties":{"OBJECTID":7,"Link":"https://www.buildingurbannature.hku.hk/tung-chung-east-eco-shoreline/","Name":"Tung Chung East Eco-Shoreline","Version":"Ecological Design Literacy"}},{"type":"Feature","id":8,"geometry":{"type":"Point","coordinates":[113.89354553413119,22.527522612831358]},"properties":{"OBJECTID":8,"Link":"https://www.buildingurbannature.hku.hk/qianhai-guiwan-park/","Name":"Qianhai Guiwan Park","Version":null}},{"type":"Feature","id":9,"geometry":{"type":"Point","coordinates":[120.13661880950762,30.209866084362758]},"properties":{"OBJECTID":9,"Link":"https://www.buildingurbannature.hku.hk/jiangyangfan-ecopark/","Name":"Jiangyangfan Ecopark","Version":null}},{"type":"Feature","id":11,"geometry":{"type":"Point","coordinates":[114.1412145353414,22.524935515493368]},"properties":{"OBJECTID":11,"Link":"https://www.buildingurbannature.hku.hk/hung-lung-hang-forest-plot/","Name":"Hung Lung Hang Forest Park","Version":"Ecological Design Literacy"}},{"type":"Feature","id":12,"geometry":{"type":"Point","coordinates":[121.5349918229908,31.227422412495844]},"properties":{"OBJECTID":12,"Link":"https://www.buildingurbannature.hku.hk/taolin-park-phase-2/","Name":"Taolin Park Phase 2","Version":null}},{"type":"Feature","id":13,"geometry":{"type":"Point","coordinates":[114.11295411411972,22.508843916742642]},"properties":{"OBJECTID":13,"Link":"https://www.buildingurbannature.hku.hk/long-valley-nature-park/","Name":"Long Valley Nature Park","Version":null}},{"type":"Feature","id":14,"geometry":{"type":"Point","coordinates":[114.27724022852499,22.280248718893372]},"properties":{"OBJECTID":14,"Link":"https://www.buildingurbannature.hku.hk/sent-landfill/","Name":"SENT Landfill","Version":null}},{"type":"Feature","id":15,"geometry":{"type":"Point","coordinates":[113.92962887920737,22.525388770096644]},"properties":{"OBJECTID":15,"Link":"https://www.buildingurbannature.hku.hk/shenzhen-habitat-garden/","Name":"Shenzhen Habitat Garden","Version":null}},{"type":"Feature","id":16,"geometry":{"type":"Point","coordinates":[114.39336476887172,30.566914143649644]},"properties":{"OBJECTID":16,"Link":"https://www.buildingurbannature.hku.hk/wuhan-east-lake-green-corridor/","Name":"Wuhan East Lake Green Corridor","Version":"Ecological Design Literacy"}}]}